Complete.info,Site.Code,Site.Name,Country,Site.Responsible,EFDC,FLUXNET,Active,Status2,Source..active.or.not.,Latitude,Longitude,IGBP.Cde,Vegetion.type,Projects,Fluxes,Contacts,Time.coverage
1,ZA-Kru,Skukuza,South Africa,Azwitamisi Mudau,1,1,1,Operational,Christian Brümmer & Antonio Bombelli,-25.0197,31.4969,SAV,Savanna (Fineleaf/broadleaf),CarboAfrica & ARS AfricaE & CSIR,CO2-E|H-E|LE-E,Bob.Scholes@wits.ac.za,"the site was established in 2001, there is from 2001 up (Feig et al. 2017 say from 2000) to today (with some interim gaps)"
1,ZA-Map,Malopeni,South Africa,Azwitamisi Mudau,1,0,1,Operational,Christian Brümmer & Antonio Bombelli,-23.83254,31.21436,SAV,Savanna,CarboAfrica & ARS AfricaE & CSIR,CO2-E|H-E|LE-E,Bob.Scholes@wits.ac.za,2008-now
1,"[ZA-Vuw], not official yet, but suggested",Vuwani,South Africa,Christian Brümmer,0,0,1,Operational,Christian Brümmer,-23.13008,30.42431,Urban and built-up,"Communal land, moderate building/housing density",ARS AfricaE,CO2-E|H-E|LE-E,christian.bruemmer@thuenen.de,July 2016 ongoing
1,"[ZA-BuR], not official yet, but suggested",Bushbuck Ridge,South Africa,Azwitamisi Mudau,0,0,1,Operational,Christian Brümmer,-24.82,31.21,Urban and built-up,Savanna in communal area,ARS AfricaE,CO2-E|H-E|LE-E,AMudau@csir.co.za,2016 ongoing
1,"[ZA-KaR], not official yet, but suggested",Karoo 1,South Africa,Christian Brümmer,0,0,1,Operational,Christian Brümmer,-31.4253,25.0294,Open shrubland,"Open shrubland, dwarf shrubs, moderate grazing",ARS AfricaE,CO2-E|H-E|LE-E,christian.bruemmer@thuenen.de,Oct 2015 ongoing
1,"[ZA-KaG], not official yet, but suggested",Karoo 2 ,South Africa,Christian Brümmer,0,0,1,Operational,Christian Brümmer,-31.4302,25.0161,Open shrubland,"Open shrubland, dwarf shrubs, intensive grazing",ARS AfricaE,CO2-E|H-E|LE-E,christian.bruemmer@thuenen.de,Oct 2015 ongoing
